[
    {
        "name": "McDonalds",
        "category": "Featured",
        "city": "Fullerton",
        "state": "California",
        "id": 1001,
        "park": "Orange County",
        "coordinates": {
            "longitude": -116.166868,
            "latitude": 34.011286
        },
        "imageName": "mcdonalds"
    },
    {
        "name": "Burger King",
        "category": "Featured",
        "city": "Fullerton",
        "state": "California",
        "id": 4,
        "park": "Orange County",
        "coordinates": {
            "longitude": -152.665167,
            "latitude": 59.980167
        },
        "imageName": "burgerking"
    },
    {
        "name": "Chick-fil-a",
        "category": "Featured",
        "city": "Fullerton",
        "state": "California",
        "id": 5,
        "park": "Orange County",
        "coordinates": {
            "longitude": -135.334571,
            "latitude": 59.560551
        },
        "imageName": "chickfila"
    },
    {
        "name": "Buffalo Wild Wings",
        "category": "Featured",
        "city": "Brea",
        "state": "California",
        "id": 99,
        "park": "Orange County",
        "coordinates": {
            "longitude": -152.665167,
            "latitude": 59.980167
        },
        "imageName": "bww"
    },
    {
        "name": "Applebee's",
        "category": "Featured",
        "city": "La Habra",
        "state": "California",
        "id": 98,
        "park": "Orange County",
        "coordinates": {
            "longitude": -135.334571,
            "latitude": 59.560551
        },
        "imageName": "applebees"
    },
    {
        "name": "Olive Garden",
        "category": "Featured",
        "city": "Santa Ana",
        "state": "California",
        "id": 97,
        "park": "Orange County",
        "coordinates": {
            "longitude": -113.536248,
            "latitude": 48.69423
        },
        "imageName": "olivegarden"
    },
    {
        "name": "Morton's Steakhouse",
        "category": "Featured",
        "city": "Costa Mesa",
        "state": "California",
        "id": 96,
        "park": "Orange County",
        "coordinates": {
            "longitude": -143.122586,
            "latitude": 65.350021
        },
        "imageName": "mortons"
    },
    {
        "name": "Rusty Pelican",
        "category": "Featured",
        "city": "Newport Beach",
        "state": "California",
        "id": 95,
        "park": "Orange County",
        "coordinates": {
            "longitude": -141.518167,
            "latitude": 60.089917
        },
        "imageName": "rustypelican"
    },
    {
        "name": "P.F. Changs",
        "category": "Featured",
        "city": "Huntington Beach",
        "state": "California",
        "id": 94,
        "park": "Orange County",
        "coordinates": {
            "longitude": -150.086103,
            "latitude": 61.694334
        },
        "imageName": "pfchangs"
    }
]
